<?xml version="1.0" encoding="UTF-8"?><restorableState><stateObject name="visible">true</stateObject><stateObject name="lowerAltitude">0.0</stateObject><stateObject name="upperAltitude">78.01316483583399</stateObject><stateObject name="lowerTerrainConforming">true</stateObject><stateObject name="upperTerrainConforming">false</stateObject><stateObject name="attributes"><stateObject name="opacity">0.95</stateObject><stateObject name="material"><stateObject name="ambient">0X404040FF</stateObject><stateObject name="diffuse">0XC0C0C0FF</stateObject><stateObject name="specular">0X0000FF</stateObject><stateObject name="emission">0X0000FF</stateObject><stateObject name="shininess">0.0</stateObject></stateObject></stateObject><stateObject name="enableCaps">true</stateObject><stateObject name="locations"><stateObject name="location"><stateObject name="latitudeDegrees">47.65685628075633</stateObject><stateObject name="longitudeDegrees">-122.30577378865144</stateObject></stateObject><stateObject name="location"><stateObject name="latitudeDegrees">47.65713885333875</stateObject><stateObject name="longitudeDegrees">-122.30535664454706</stateObject></stateObject><stateObject name="location"><stateObject name="latitudeDegrees">47.65718232017985</stateObject><stateObject name="longitudeDegrees">-122.30542578536301</stateObject></stateObject><stateObject name="location"><stateObject name="latitudeDegrees">47.65729838135952</stateObject><stateObject name="longitudeDegrees">-122.3052463674066</stateObject></stateObject><stateObject name="location"><stateObject name="latitudeDegrees">47.65707835576895</stateObject><stateObject name="longitudeDegrees">-122.30491459977273</stateObject></stateObject><stateObject name="location"><stateObject name="latitudeDegrees">47.65695572995316</stateObject><stateObject name="longitudeDegrees">-122.30508741585889</stateObject></stateObject><stateObject name="location"><stateObject name="latitudeDegrees">47.65703326182672</stateObject><stateObject name="longitudeDegrees">-122.30520397885738</stateObject></stateObject><stateObject name="location"><stateObject name="latitudeDegrees">47.65667155376613</stateObject><stateObject name="longitudeDegrees">-122.30573059276466</stateObject></stateObject><stateObject name="location"><stateObject name="latitudeDegrees">47.65674035954668</stateObject><stateObject name="longitudeDegrees">-122.30583826897904</stateObject></stateObject><stateObject name="location"><stateObject name="latitudeDegrees">47.656679454557114</stateObject><stateObject name="longitudeDegrees">-122.30592744438194</stateObject></stateObject><stateObject name="location"><stateObject name="latitudeDegrees">47.656416084588336</stateObject><stateObject name="longitudeDegrees">-122.30554315147454</stateObject></stateObject><stateObject name="location"><stateObject name="latitudeDegrees">47.65628622824535</stateObject><stateObject name="longitudeDegrees">-122.30573706270638</stateObject></stateObject><stateObject name="location"><stateObject name="latitudeDegrees">47.656626917915375</stateObject><stateObject name="longitudeDegrees">-122.30624462634827</stateObject></stateObject><stateObject name="location"><stateObject name="latitudeDegrees">47.65690155320233</stateObject><stateObject name="longitudeDegrees">-122.30584965075813</stateObject></stateObject></stateObject></restorableState>