<?xml version="1.0" encoding="UTF-8"?><restorableState><stateObject name="visible">true</stateObject><stateObject name="lowerAltitude">0.0</stateObject><stateObject name="upperAltitude">79.16889063645051</stateObject><stateObject name="lowerTerrainConforming">true</stateObject><stateObject name="upperTerrainConforming">false</stateObject><stateObject name="attributes"><stateObject name="opacity">0.95</stateObject><stateObject name="material"><stateObject name="ambient">0X404040FF</stateObject><stateObject name="diffuse">0XC0C0C0FF</stateObject><stateObject name="specular">0X0000FF</stateObject><stateObject name="emission">0X0000FF</stateObject><stateObject name="shininess">0.0</stateObject></stateObject></stateObject><stateObject name="enableCaps">true</stateObject><stateObject name="locations"><stateObject name="location"><stateObject name="latitudeDegrees">47.659012078872486</stateObject><stateObject name="longitudeDegrees">-122.30818277263738</stateObject></stateObject><stateObject name="location"><stateObject name="latitudeDegrees">47.65929685366654</stateObject><stateObject name="longitudeDegrees">-122.30776723937775</stateObject></stateObject><stateObject name="location"><stateObject name="latitudeDegrees">47.659469074962644</stateObject><stateObject name="longitudeDegrees">-122.30801517703388</stateObject></stateObject><stateObject name="location"><stateObject name="latitudeDegrees">47.65959651074922</stateObject><stateObject name="longitudeDegrees">-122.307824862582</stateObject></stateObject><stateObject name="location"><stateObject name="latitudeDegrees">47.6592789943787</stateObject><stateObject name="longitudeDegrees">-122.30737247481007</stateObject></stateObject><stateObject name="location"><stateObject name="latitudeDegrees">47.65887254287099</stateObject><stateObject name="longitudeDegrees">-122.30798313793348</stateObject></stateObject></stateObject></restorableState>