<?xml version="1.0" encoding="UTF-8"?><restorableState><stateObject name="visible">true</stateObject><stateObject name="lowerAltitude">0.0</stateObject><stateObject name="upperAltitude">65.96162875627331</stateObject><stateObject name="lowerTerrainConforming">true</stateObject><stateObject name="upperTerrainConforming">false</stateObject><stateObject name="attributes"><stateObject name="opacity">0.95</stateObject><stateObject name="material"><stateObject name="ambient">0X404040FF</stateObject><stateObject name="diffuse">0XC0C0C0FF</stateObject><stateObject name="specular">0X0000FF</stateObject><stateObject name="emission">0X0000FF</stateObject><stateObject name="shininess">0.0</stateObject></stateObject></stateObject><stateObject name="enableCaps">true</stateObject><stateObject name="locations"><stateObject name="location"><stateObject name="latitudeDegrees">47.659874597898174</stateObject><stateObject name="longitudeDegrees">-122.30427280163772</stateObject></stateObject><stateObject name="location"><stateObject name="latitudeDegrees">47.66039373765588</stateObject><stateObject name="longitudeDegrees">-122.30429727815172</stateObject></stateObject><stateObject name="location"><stateObject name="latitudeDegrees">47.66039364371258</stateObject><stateObject name="longitudeDegrees">-122.30390904953612</stateObject></stateObject><stateObject name="location"><stateObject name="latitudeDegrees">47.66031025141353</stateObject><stateObject name="longitudeDegrees">-122.30391184275703</stateObject></stateObject><stateObject name="location"><stateObject name="latitudeDegrees">47.660308427081624</stateObject><stateObject name="longitudeDegrees">-122.30401724742923</stateObject></stateObject><stateObject name="location"><stateObject name="latitudeDegrees">47.65987573581897</stateObject><stateObject name="longitudeDegrees">-122.3040116967478</stateObject></stateObject></stateObject></restorableState>